[{"id": "uwFa-pTQL1Rv4nULoIraNw", "alias": "ramen-tatsu-ya-austin-2", "name": "Ramen Tatsu-Ya", "image_url": "https://s3-media4.fl.yelpcdn.com/bphoto/rNrHEySUxTIIXbft3SkF0A/o.jpg", "is_closed": false, "url": "https://www.yelp.com/biz/ramen-tatsu-ya-austin-2?adjust_creative=Yv6QPpIAqCPQuHpWZNwgeA&utm_campaign=yelp_api_v3&utm_medium=api_v3_business_search&utm_source=Yv6QPpIAqCPQuHpWZNwgeA", "review_count": 1879, "categories": [{"alias": "ramen", "title": "Ramen"}], "rating": 4.0, "coordinates": {"latitude": 30.253899793553, "longitude": -97.7631825953722}, "transactions": [], "price": "$$", "location": {"address1": "1234 S Lamar Blvd", "address2": "", "address3": "", "city": "Austin", "zip_code": "78704", "country": "US", "state": "TX", "display_address": ["1234 S Lamar Blvd", "Austin, TX 78704"]}, "phone": "+15128935561", "display_phone": "(512) 893-5561", "distance": 2455.800396350483}, {"id": "7ZU9DwctpN_tkC7EOd3C-Q", "alias": "ramen-tatsu-ya-austin-6", "name": "Ramen Tatsu-Ya", "image_url": "https://s3-media2.fl.yelpcdn.com/bphoto/5QE3yxk2jr_MM2VkdT4xqQ/o.jpg", "is_closed": false, "url": "https://www.yelp.com/biz/ramen-tatsu-ya-austin-6?adjust_creative=Yv6QPpIAqCPQuHpWZNwgeA&utm_campaign=yelp_api_v3&utm_medium=api_v3_business_search&utm_source=Yv6QPpIAqCPQuHpWZNwgeA", "review_count": 585, "categories": [{"alias": "ramen", "title": "Ramen"}, {"alias": "japacurry", "title": "Japanese Curry"}], "rating": 4.0, "coordinates": {"latitude": 30.26326, "longitude": -97.72624}, "transactions": [], "price": "$$", "location": {"address1": "1600 E 6th St", "address2": null, "address3": "", "city": "Austin", "zip_code": "78702", "country": "US", "state": "TX", "display_address": ["1600 E 6th St", "Austin, TX 78702"]}, "phone": "+15128935561", "display_phone": "(512) 893-5561", "distance": 1647.0614045760396}, {"id": "yqL1P6wcSZYQAgpO3TfhBQ", "alias": "kemuri-tatsu-ya-austin-2", "name": "Kemuri Tatsu-ya", "image_url": "https://s3-media3.fl.yelpcdn.com/bphoto/YloCTtTil_gnW2yX-KTTVQ/o.jpg", "is_closed": false, "url": "https://www.yelp.com/biz/kemuri-tatsu-ya-austin-2?adjust_creative=Yv6QPpIAqCPQuHpWZNwgeA&utm_campaign=yelp_api_v3&utm_medium=api_v3_business_search&utm_source=Yv6QPpIAqCPQuHpWZNwgeA", "review_count": 784, "categories": [{"alias": "izakaya", "title": "Izakaya"}, {"alias": "smokehouse", "title": "Smokehouse"}], "rating": 4.0, "coordinates": {"latitude": 30.25386, "longitude": -97.7129}, "transactions": ["delivery"], "price": "$$", "location": {"address1": "2713 E 2nd St", "address2": "", "address3": null, "city": "Austin", "zip_code": "78702", "country": "US", "state": "TX", "display_address": ["2713 E 2nd St", "Austin, TX 78702"]}, "phone": "+15128032224", "display_phone": "(512) 803-2224", "distance": 3231.061743328923}, {"id": "HKi7fd2bTzZfVB_Dz9vGng", "alias": "lucky-robot-austin", "name": "Lucky Robot", "image_url": "https://s3-media4.fl.yelpcdn.com/bphoto/-8j6xGqxJQa_EYA953HNgw/o.jpg", "is_closed": false, "url": "https://www.yelp.com/biz/lucky-robot-austin?adjust_creative=Yv6QPpIAqCPQuHpWZNwgeA&utm_campaign=yelp_api_v3&utm_medium=api_v3_business_search&utm_source=Yv6QPpIAqCPQuHpWZNwgeA", "review_count": 1205, "categories": [{"alias": "sushi", "title": "Sushi Bars"}, {"alias": "ramen", "title": "Ramen"}], "rating": 4.0, "coordinates": {"latitude": 30.250851476015615, "longitude": -97.7490062850641}, "transactions": ["delivery", "pickup"], "price": "$$", "location": {"address1": "1303 S Congress Ave", "address2": "", "address3": "", "city": "Austin", "zip_code": "78704", "country": "US", "state": "TX", "display_address": ["1303 S Congress Ave", "Austin, TX 78704"]}, "phone": "+15124448081", "display_phone": "(512) 444-8081", "distance": 1915.560385323384}, {"id": "4h-O6wPWswMbVowT_lYn9g", "alias": "tiki-tatsu-ya-austin-2", "name": "Tiki Tatsu-Ya", "image_url": "https://s3-media3.fl.yelpcdn.com/bphoto/2kGRBokVQz-aPWrRi7PrUw/o.jpg", "is_closed": false, "url": "https://www.yelp.com/biz/tiki-tatsu-ya-austin-2?adjust_creative=Yv6QPpIAqCPQuHpWZNwgeA&utm_campaign=yelp_api_v3&utm_medium=api_v3_business_search&utm_source=Yv6QPpIAqCPQuHpWZNwgeA", "review_count": 161, "categories": [{"alias": "polynesian", "title": "Polynesian"}, {"alias": "tikibars", "title": "Tiki Bars"}, {"alias": "ramen", "title": "Ramen"}], "rating": 4.0, "coordinates": {"latitude": 30.25382, "longitude": -97.76331}, "transactions": ["delivery"], "location": {"address1": "1300 S Lamar Blvd", "address2": "", "address3": null, "city": "Austin", "zip_code": "78704", "country": "US", "state": "TX", "display_address": ["1300 S Lamar Blvd", "Austin, TX 78704"]}, "phone": "+15127723700", "display_phone": "(512) 772-3700", "distance": 2473.6016792792266}, {"id": "nXtn29mTWlYeHxvHSz4dfA", "alias": "koriente-austin", "name": "Koriente", "image_url": "https://s3-media3.fl.yelpcdn.com/bphoto/JAENxBJaawYyidOcAYmzVQ/o.jpg", "is_closed": false, "url": "https://www.yelp.com/biz/koriente-austin?adjust_creative=Yv6QPpIAqCPQuHpWZNwgeA&utm_campaign=yelp_api_v3&utm_medium=api_v3_business_search&utm_source=Yv6QPpIAqCPQuHpWZNwgeA", "review_count": 1804, "categories": [{"alias": "asianfusion", "title": "Asian Fusion"}, {"alias": "gluten_free", "title": "Gluten-Free"}, {"alias": "salad", "title": "Salad"}], "rating": 4.5, "coordinates": {"latitude": 30.267, "longitude": -97.73597}, "transactions": ["delivery", "pickup"], "price": "$$", "location": {"address1": "621 E 7th St", "address2": null, "address3": "", "city": "Austin", "zip_code": "78701", "country": "US", "state": "TX", "display_address": ["621 E 7th St", "Austin, TX 78701"]}, "phone": "+15122750852", "display_phone": "(512) 275-0852", "distance": 651.7673026388674}, {"id": "t2OSdT_yrpi0lWPrvs6UMg", "alias": "michi-ramen-austin-2", "name": "Michi Ramen", "image_url": "https://s3-media2.fl.yelpcdn.com/bphoto/SiKSZ5jjGbbo7nYsKVPYQw/o.jpg", "is_closed": false, "url": "https://www.yelp.com/biz/michi-ramen-austin-2?adjust_creative=Yv6QPpIAqCPQuHpWZNwgeA&utm_campaign=yelp_api_v3&utm_medium=api_v3_business_search&utm_source=Yv6QPpIAqCPQuHpWZNwgeA", "review_count": 231, "categories": [{"alias": "ramen", "title": "Ramen"}, {"alias": "noodles", "title": "Noodles"}, {"alias": "soup", "title": "Soup"}], "rating": 3.5, "coordinates": {"latitude": 30.241549945231558, "longitude": -97.7841275687173}, "transactions": ["delivery", "pickup"], "price": "$$", "location": {"address1": "3005 S Lamar Blvd", "address2": "D-114B", "address3": "D-114B", "city": "Austin", "zip_code": "78704", "country": "US", "state": "TX", "display_address": ["3005 S Lamar Blvd", "D-114B", "D-114B", "Austin, TX 78704"]}, "phone": "+15123946350", "display_phone": "(512) 394-6350", "distance": 4890.23408112642}, {"id": "nyDs0CD-lFysI3oIG9T5bw", "alias": "wu-chow-austin", "name": "Wu Chow", "image_url": "https://s3-media2.fl.yelpcdn.com/bphoto/OIy0CrlY8y-ndn_yVDYfzw/o.jpg", "is_closed": false, "url": "https://www.yelp.com/biz/wu-chow-austin?adjust_creative=Yv6QPpIAqCPQuHpWZNwgeA&utm_campaign=yelp_api_v3&utm_medium=api_v3_business_search&utm_source=Yv6QPpIAqCPQuHpWZNwgeA", "review_count": 914, "categories": [{"alias": "dimsum", "title": "Dim Sum"}, {"alias": "seafood", "title": "Seafood"}, {"alias": "asianfusion", "title": "Asian Fusion"}], "rating": 4.0, "coordinates": {"latitude": 30.2685154974461, "longitude": -97.7478443831205}, "transactions": ["delivery"], "price": "$$", "location": {"address1": "500 W 5th St", "address2": "", "address3": "", "city": "Austin", "zip_code": "78701", "country": "US", "state": "TX", "display_address": ["500 W 5th St", "Austin, TX 78701"]}, "phone": "+15124762469", "display_phone": "(512) 476-2469", "distance": 550.8274206174113}, {"id": "h_It_i-0ZyMy8UoNXV8Q7w", "alias": "revue-austin-3", "name": "REVUE", "image_url": "https://s3-media1.fl.yelpcdn.com/bphoto/PZ0RB4lw1BqqEb-8-O9NnQ/o.jpg", "is_closed": false, "url": "https://www.yelp.com/biz/revue-austin-3?adjust_creative=Yv6QPpIAqCPQuHpWZNwgeA&utm_campaign=yelp_api_v3&utm_medium=api_v3_business_search&utm_source=Yv6QPpIAqCPQuHpWZNwgeA", "review_count": 117, "categories": [{"alias": "italian", "title": "Italian"}, {"alias": "breakfast_brunch", "title": "Breakfast & Brunch"}, {"alias": "bars", "title": "Bars"}], "rating": 4.0, "coordinates": {"latitude": 30.26198, "longitude": -97.73862}, "transactions": [], "price": "$$", "location": {"address1": "101 Red River St", "address2": null, "address3": null, "city": "Austin", "zip_code": "78701", "country": "US", "state": "TX", "display_address": ["101 Red River St", "Austin, TX 78701"]}, "phone": "+15125244813", "display_phone": "(512) 524-4813", "distance": 717.3363720402523}, {"id": "g23A-0NiWi8OkEf6mynjAg", "alias": "domo-alley-gato-tatsu-ya-austin", "name": "Domo Alley Gato Tatsu-Ya", "image_url": "https://s3-media2.fl.yelpcdn.com/bphoto/mDUESsjePh_cak2xeqO1oA/o.jpg", "is_closed": false, "url": "https://www.yelp.com/biz/domo-alley-gato-tatsu-ya-austin?adjust_creative=Yv6QPpIAqCPQuHpWZNwgeA&utm_campaign=yelp_api_v3&utm_medium=api_v3_business_search&utm_source=Yv6QPpIAqCPQuHpWZNwgeA", "review_count": 92, "categories": [{"alias": "japanese", "title": "Japanese"}], "rating": 4.0, "coordinates": {"latitude": 30.2632414384273, "longitude": -97.7261446495729}, "transactions": ["delivery"], "price": "$$", "location": {"address1": "1606 E 6th St", "address2": "", "address3": null, "city": "Austin", "zip_code": "78702", "country": "US", "state": "TX", "display_address": ["1606 E 6th St", "Austin, TX 78702"]}, "phone": "+15123609770", "display_phone": "(512) 360-9770", "distance": 1658.338965742962}, {"id": "Uav2xHxqZZxy4eblNB--PA", "alias": "fukumoto-sushi-and-yakitori-austin", "name": "Fukumoto Sushi & Yakitori", "image_url": "https://s3-media1.fl.yelpcdn.com/bphoto/t_MCvnXyOOmhnfqiNslXig/o.jpg", "is_closed": false, "url": "https://www.yelp.com/biz/fukumoto-sushi-and-yakitori-austin?adjust_creative=Yv6QPpIAqCPQuHpWZNwgeA&utm_campaign=yelp_api_v3&utm_medium=api_v3_business_search&utm_source=Yv6QPpIAqCPQuHpWZNwgeA", "review_count": 514, "categories": [{"alias": "sushi", "title": "Sushi Bars"}, {"alias": "japanese", "title": "Japanese"}, {"alias": "bars", "title": "Bars"}], "rating": 4.5, "coordinates": {"latitude": 30.2647051303186, "longitude": -97.731695353373}, "transactions": ["delivery", "pickup"], "price": "$$$", "location": {"address1": "514 Medina St", "address2": "", "address3": "", "city": "Austin", "zip_code": "78702", "country": "US", "state": "TX", "display_address": ["514 Medina St", "Austin, TX 78702"]}, "phone": "+15127706880", "display_phone": "(512) 770-6880", "distance": 1101.245616396346}, {"id": "dZh2u96vAN8pdHmiwcpXdw", "alias": "ra-sushi-bar-restaurant-austin", "name": "RA Sushi Bar Restaurant", "image_url": "https://s3-media1.fl.yelpcdn.com/bphoto/n8k-GcvWGTURMdHiOjCCrA/o.jpg", "is_closed": false, "url": "https://www.yelp.com/biz/ra-sushi-bar-restaurant-austin?adjust_creative=Yv6QPpIAqCPQuHpWZNwgeA&utm_campaign=yelp_api_v3&utm_medium=api_v3_business_search&utm_source=Yv6QPpIAqCPQuHpWZNwgeA", "review_count": 603, "categories": [{"alias": "sushi", "title": "Sushi Bars"}, {"alias": "japanese", "title": "Japanese"}, {"alias": "cocktailbars", "title": "Cocktail Bars"}], "rating": 3.0, "coordinates": {"latitude": 30.26633, "longitude": -97.74464}, "transactions": ["delivery", "pickup"], "price": "$$", "location": {"address1": "117 W 4th St", "address2": "Ste 300", "address3": "", "city": "Austin", "zip_code": "78701", "country": "US", "state": "TX", "display_address": ["117 W 4th St", "Ste 300", "Austin, TX 78701"]}, "phone": "+15127262130", "display_phone": "(512) 726-2130", "distance": 204.19830280980906}, {"id": "XNrAtQFU4vl9NA8GTlNonA", "alias": "888-pan-asian-restaurant-austin", "name": "888 Pan Asian Restaurant", "image_url": "https://s3-media3.fl.yelpcdn.com/bphoto/1vvJa5yXgITBHjJfD9WnCQ/o.jpg", "is_closed": false, "url": "https://www.yelp.com/biz/888-pan-asian-restaurant-austin?adjust_creative=Yv6QPpIAqCPQuHpWZNwgeA&utm_campaign=yelp_api_v3&utm_medium=api_v3_business_search&utm_source=Yv6QPpIAqCPQuHpWZNwgeA", "review_count": 1852, "categories": [{"alias": "vietnamese", "title": "Vietnamese"}, {"alias": "thai", "title": "Thai"}, {"alias": "chinese", "title": "Chinese"}], "rating": 4.0, "coordinates": {"latitude": 30.2296193570823, "longitude": -97.7299686863661}, "transactions": ["delivery"], "price": "$$", "location": {"address1": "2400 E Oltorf St", "address2": "Ste 1", "address3": "", "city": "Austin", "zip_code": "78741", "country": "US", "state": "TX", "display_address": ["2400 E Oltorf St", "Ste 1", "Austin, TX 78741"]}, "phone": "+15124484722", "display_phone": "(512) 448-4722", "distance": 4358.445397020496}, {"id": "fWgfmVcdwx_vY4wSphV1Lw", "alias": "soto-south-lamar-austin-2", "name": "Soto South Lamar", "image_url": "https://s3-media3.fl.yelpcdn.com/bphoto/Q5e7wvKjj91hcV2APRpqAg/o.jpg", "is_closed": false, "url": "https://www.yelp.com/biz/soto-south-lamar-austin-2?adjust_creative=Yv6QPpIAqCPQuHpWZNwgeA&utm_campaign=yelp_api_v3&utm_medium=api_v3_business_search&utm_source=Yv6QPpIAqCPQuHpWZNwgeA", "review_count": 464, "categories": [{"alias": "japanese", "title": "Japanese"}, {"alias": "sushi", "title": "Sushi Bars"}, {"alias": "bars", "title": "Bars"}], "rating": 4.5, "coordinates": {"latitude": 30.255700844821217, "longitude": -97.76302001574139}, "transactions": [], "price": "$$$", "location": {"address1": "1100 S Lamar Blvd", "address2": "Ste 2115", "address3": "", "city": "Austin", "zip_code": "78704", "country": "US", "state": "TX", "display_address": ["1100 S Lamar Blvd", "Ste 2115", "Austin, TX 78704"]}, "phone": "+15125319142", "display_phone": "(512) 531-9142", "distance": 2327.4107072846664}, {"id": "G6_o1h3cm7ocJK-To1HWew", "alias": "pho-please-austin-3", "name": "Pho Please", "image_url": "https://s3-media3.fl.yelpcdn.com/bphoto/ax-5pydoucpCXJGNzYaijw/o.jpg", "is_closed": false, "url": "https://www.yelp.com/biz/pho-please-austin-3?adjust_creative=Yv6QPpIAqCPQuHpWZNwgeA&utm_campaign=yelp_api_v3&utm_medium=api_v3_business_search&utm_source=Yv6QPpIAqCPQuHpWZNwgeA", "review_count": 1049, "categories": [{"alias": "vietnamese", "title": "Vietnamese"}, {"alias": "noodles", "title": "Noodles"}, {"alias": "soup", "title": "Soup"}], "rating": 4.5, "coordinates": {"latitude": 30.243163, "longitude": -97.72809}, "transactions": ["delivery"], "price": "$$", "location": {"address1": "1920 East Riverside Dr", "address2": "Ste D140", "address3": "", "city": "Austin", "zip_code": "78741", "country": "US", "state": "TX", "display_address": ["1920 East Riverside Dr", "Ste D140", "Austin, TX 78741"]}, "phone": "+15123549779", "display_phone": "(512) 354-9779", "distance": 3024.5454442810055}, {"id": "zFaHweOJ40jjtvpGTjlspw", "alias": "uchi-austin", "name": "Uchi", "image_url": "https://s3-media4.fl.yelpcdn.com/bphoto/WITXPKAHT0HyF3zzBjZNgA/o.jpg", "is_closed": false, "url": "https://www.yelp.com/biz/uchi-austin?adjust_creative=Yv6QPpIAqCPQuHpWZNwgeA&utm_campaign=yelp_api_v3&utm_medium=api_v3_business_search&utm_source=Yv6QPpIAqCPQuHpWZNwgeA", "review_count": 2650, "categories": [{"alias": "sushi", "title": "Sushi Bars"}, {"alias": "japanese", "title": "Japanese"}, {"alias": "beer_and_wine", "title": "Beer, Wine & Spirits"}], "rating": 4.5, "coordinates": {"latitude": 30.257515, "longitude": -97.759806}, "transactions": ["delivery"], "price": "$$$$", "location": {"address1": "801 South Lamar Blvd", "address2": "", "address3": "", "city": "Austin", "zip_code": "78704", "country": "US", "state": "TX", "display_address": ["801 South Lamar Blvd", "Austin, TX 78704"]}, "phone": "+15129164808", "display_phone": "(512) 916-4808", "distance": 1955.6258478565173}, {"id": "eQxWPpAvGlCj1wzg_4CW_w", "alias": "look-noodles-and-more-austin", "name": "Look Noodles & More", "image_url": "https://s3-media3.fl.yelpcdn.com/bphoto/aQV1BXTEuK4lp-VhKB5-SQ/o.jpg", "is_closed": false, "url": "https://www.yelp.com/biz/look-noodles-and-more-austin?adjust_creative=Yv6QPpIAqCPQuHpWZNwgeA&utm_campaign=yelp_api_v3&utm_medium=api_v3_business_search&utm_source=Yv6QPpIAqCPQuHpWZNwgeA", "review_count": 154, "categories": [{"alias": "ramen", "title": "Ramen"}, {"alias": "chinese", "title": "Chinese"}, {"alias": "poke", "title": "Poke"}], "rating": 3.5, "coordinates": {"latitude": 30.282631, "longitude": -97.742321}, "transactions": ["delivery", "pickup"], "price": "$$", "location": {"address1": "1914 Guadalupe St", "address2": "Ste A", "address3": null, "city": "Austin", "zip_code": "78705", "country": "US", "state": "TX", "display_address": ["1914 Guadalupe St", "Ste A", "Austin, TX 78705"]}, "phone": "+17374841378", "display_phone": "(737) 484-1378", "distance": 1714.2737915885787}, {"id": "hT8ihPNLAasb5RIkUVcW0w", "alias": "east-side-king-austin-15", "name": "East Side King", "image_url": "https://s3-media4.fl.yelpcdn.com/bphoto/9XLK-ey41T_SxCe9tyUb8A/o.jpg", "is_closed": false, "url": "https://www.yelp.com/biz/east-side-king-austin-15?adjust_creative=Yv6QPpIAqCPQuHpWZNwgeA&utm_campaign=yelp_api_v3&utm_medium=api_v3_business_search&utm_source=Yv6QPpIAqCPQuHpWZNwgeA", "review_count": 533, "categories": [{"alias": "asianfusion", "title": "Asian Fusion"}, {"alias": "foodtrucks", "title": "Food Trucks"}], "rating": 4.0, "coordinates": {"latitude": 30.2626674, "longitude": -97.7251338}, "transactions": ["delivery", "pickup"], "price": "$$", "location": {"address1": "1618 1/2 E 6th S", "address2": "", "address3": "", "city": "Austin", "zip_code": "78702", "country": "US", "state": "TX", "display_address": ["1618 1/2 E 6th S", "Austin, TX 78702"]}, "phone": "+15124078166", "display_phone": "(512) 407-8166", "distance": 1769.2917292447075}, {"id": "He2KYtXXfaIR0nkCXH5xiQ", "alias": "loro-austin", "name": "Loro", "image_url": "https://s3-media1.fl.yelpcdn.com/bphoto/uWn-mZxI3Rc9ltUqtJ0v0Q/o.jpg", "is_closed": false, "url": "https://www.yelp.com/biz/loro-austin?adjust_creative=Yv6QPpIAqCPQuHpWZNwgeA&utm_campaign=yelp_api_v3&utm_medium=api_v3_business_search&utm_source=Yv6QPpIAqCPQuHpWZNwgeA", "review_count": 1534, "categories": [{"alias": "smokehouse", "title": "Smokehouse"}, {"alias": "asianfusion", "title": "Asian Fusion"}, {"alias": "cocktailbars", "title": "Cocktail Bars"}], "rating": 4.0, "coordinates": {"latitude": 30.24775, "longitude": -97.77127}, "transactions": ["delivery"], "price": "$$", "location": {"address1": "2115 S Lamar Blvd", "address2": "", "address3": null, "city": "Austin", "zip_code": "78704", "country": "US", "state": "TX", "display_address": ["2115 S Lamar Blvd", "Austin, TX 78704"]}, "phone": "+15129164858", "display_phone": "(512) 916-4858", "distance": 3486.4898155553506}, {"id": "LvSKdHCch7Reet3c78XhaQ", "alias": "julies-handmade-noodles-austin-5", "name": "Julie's Handmade Noodles", "image_url": "https://s3-media4.fl.yelpcdn.com/bphoto/xRrkt7_vrMTVJmxvqaDPmw/o.jpg", "is_closed": false, "url": "https://www.yelp.com/biz/julies-handmade-noodles-austin-5?adjust_creative=Yv6QPpIAqCPQuHpWZNwgeA&utm_campaign=yelp_api_v3&utm_medium=api_v3_business_search&utm_source=Yv6QPpIAqCPQuHpWZNwgeA", "review_count": 194, "categories": [{"alias": "chinese", "title": "Chinese"}, {"alias": "foodtrucks", "title": "Food Trucks"}, {"alias": "noodles", "title": "Noodles"}], "rating": 4.0, "coordinates": {"latitude": 30.29051, "longitude": -97.74464}, "transactions": ["delivery"], "price": "$", "location": {"address1": "2512 Rio Grande St", "address2": "", "address3": "", "city": "Austin", "zip_code": "78705", "country": "US", "state": "TX", "display_address": ["2512 Rio Grande St", "Austin, TX 78705"]}, "phone": "+16465080087", "display_phone": "(646) 508-0087", "distance": 2600.3704309112154}, {"id": "0lgGW93HYeVqrTTx9d3gUA", "alias": "chilantro-austin", "name": "Chi'Lantro", "image_url": "https://s3-media2.fl.yelpcdn.com/bphoto/EgkriIi4EWfo49HPEoDJXg/o.jpg", "is_closed": false, "url": "https://www.yelp.com/biz/chilantro-austin?adjust_creative=Yv6QPpIAqCPQuHpWZNwgeA&utm_campaign=yelp_api_v3&utm_medium=api_v3_business_search&utm_source=Yv6QPpIAqCPQuHpWZNwgeA", "review_count": 724, "categories": [{"alias": "korean", "title": "Korean"}, {"alias": "foodtrucks", "title": "Food Trucks"}, {"alias": "bbq", "title": "Barbeque"}], "rating": 4.0, "coordinates": {"latitude": 30.27007, "longitude": -97.74187}, "transactions": ["delivery"], "price": "$", "location": {"address1": "823 Congress Ave", "address2": null, "address3": "", "city": "Austin", "zip_code": "78701", "country": "US", "state": "TX", "display_address": ["823 Congress Ave", "Austin, TX 78701"]}, "phone": "+15125936290", "display_phone": "(512) 593-6290", "distance": 372.02937860168817}, {"id": "2ZVSDvbFK2DNoZb9x7NlfQ", "alias": "chilantro-austin-7", "name": "Chi'Lantro", "image_url": "https://s3-media1.fl.yelpcdn.com/bphoto/cbQcpkwiY3lhH9K8IZffQQ/o.jpg", "is_closed": false, "url": "https://www.yelp.com/biz/chilantro-austin-7?adjust_creative=Yv6QPpIAqCPQuHpWZNwgeA&utm_campaign=yelp_api_v3&utm_medium=api_v3_business_search&utm_source=Yv6QPpIAqCPQuHpWZNwgeA", "review_count": 693, "categories": [{"alias": "asianfusion", "title": "Asian Fusion"}, {"alias": "korean", "title": "Korean"}, {"alias": "bbq", "title": "Barbeque"}], "rating": 4.0, "coordinates": {"latitude": 30.252212, "longitude": -97.763751}, "transactions": ["delivery", "pickup"], "price": "$", "location": {"address1": "1509 S Lamar Blvd", "address2": "", "address3": "", "city": "Austin", "zip_code": "78704", "country": "US", "state": "TX", "display_address": ["1509 S Lamar Blvd", "Austin, TX 78704"]}, "phone": "+15124285269", "display_phone": "(512) 428-5269", "distance": 2615.1529999030395}, {"id": "tHGogN8RwYyDPyCOX5LIPA", "alias": "ramen-twist-austin", "name": "Ramen Twist", "image_url": "https://s3-media2.fl.yelpcdn.com/bphoto/k_QcOeH4c22cS24ck_hPMA/o.jpg", "is_closed": false, "url": "https://www.yelp.com/biz/ramen-twist-austin?adjust_creative=Yv6QPpIAqCPQuHpWZNwgeA&utm_campaign=yelp_api_v3&utm_medium=api_v3_business_search&utm_source=Yv6QPpIAqCPQuHpWZNwgeA", "review_count": 1, "categories": [{"alias": "hotdogs", "title": "Fast Food"}, {"alias": "ramen", "title": "Ramen"}, {"alias": "soup", "title": "Soup"}], "rating": 5.0, "coordinates": {"latitude": 30.283392, "longitude": -97.741388}, "transactions": ["delivery", "pickup"], "location": {"address1": "2025 Guadalupe", "address2": "Ste 230", "address3": "", "city": "Austin", "zip_code": "78705", "country": "US", "state": "TX", "display_address": ["2025 Guadalupe", "Ste 230", "Austin, TX 78705"]}, "phone": "+15124944904", "display_phone": "(512) 494-4904", "distance": 1797.5537357729543}, {"id": "Wn8j-1-ity6hdjP4bC_wkw", "alias": "sip-pho-austin-2", "name": "Sip Pho", "image_url": "https://s3-media2.fl.yelpcdn.com/bphoto/-4eOL9JkIOYTohUOJKX5TQ/o.jpg", "is_closed": false, "url": "https://www.yelp.com/biz/sip-pho-austin-2?adjust_creative=Yv6QPpIAqCPQuHpWZNwgeA&utm_campaign=yelp_api_v3&utm_medium=api_v3_business_search&utm_source=Yv6QPpIAqCPQuHpWZNwgeA", "review_count": 252, "categories": [{"alias": "vietnamese", "title": "Vietnamese"}, {"alias": "tapasmallplates", "title": "Tapas/Small Plates"}, {"alias": "noodles", "title": "Noodles"}], "rating": 4.5, "coordinates": {"latitude": 30.295421, "longitude": -97.742327}, "transactions": ["delivery"], "price": "$$", "location": {"address1": "512 W 29th St", "address2": "", "address3": null, "city": "Austin", "zip_code": "78705", "country": "US", "state": "TX", "display_address": ["512 W 29th St", "Austin, TX 78705"]}, "phone": "+15125519778", "display_phone": "(512) 551-9778", "distance": 3136.1829017967284}, {"id": "egxBLqxYJvjOGJ9P-Dw--A", "alias": "gyu-kaku-japanese-bbq-austin", "name": "Gyu-Kaku Japanese BBQ", "image_url": "https://s3-media2.fl.yelpcdn.com/bphoto/1iQB-U5aiG6j3hjGGrTtkw/o.jpg", "is_closed": false, "url": "https://www.yelp.com/biz/gyu-kaku-japanese-bbq-austin?adjust_creative=Yv6QPpIAqCPQuHpWZNwgeA&utm_campaign=yelp_api_v3&utm_medium=api_v3_business_search&utm_source=Yv6QPpIAqCPQuHpWZNwgeA", "review_count": 158, "categories": [{"alias": "japanese", "title": "Japanese"}, {"alias": "bbq", "title": "Barbeque"}, {"alias": "asianfusion", "title": "Asian Fusion"}], "rating": 3.5, "coordinates": {"latitude": 30.26330221671628, "longitude": -97.73076913558226}, "transactions": ["delivery", "pickup"], "price": "$$", "location": {"address1": "1211 East 5th St", "address2": "Ste 100", "address3": "", "city": "Austin", "zip_code": "78702", "country": "US", "state": "TX", "display_address": ["1211 East 5th St", "Ste 100", "Austin, TX 78702"]}, "phone": "+17372090351", "display_phone": "(737) 209-0351", "distance": 1233.584918319382}, {"id": "VeJywB-UzzhUx5f8rD4aHQ", "alias": "fareground-at-one-eleven-austin-4", "name": "Fareground At One Eleven", "image_url": "https://s3-media4.fl.yelpcdn.com/bphoto/5YoFQknraCL4FpMm-H74ow/o.jpg", "is_closed": false, "url": "https://www.yelp.com/biz/fareground-at-one-eleven-austin-4?adjust_creative=Yv6QPpIAqCPQuHpWZNwgeA&utm_campaign=yelp_api_v3&utm_medium=api_v3_business_search&utm_source=Yv6QPpIAqCPQuHpWZNwgeA", "review_count": 171, "categories": [{"alias": "food_court", "title": "Food Court"}], "rating": 4.0, "coordinates": {"latitude": 30.26368, "longitude": -97.74367}, "transactions": ["delivery"], "price": "$$", "location": {"address1": "111 Congress Ave", "address2": "", "address3": null, "city": "Austin", "zip_code": "78701", "country": "US", "state": "TX", "display_address": ["111 Congress Ave", "Austin, TX 78701"]}, "phone": "+15124652107", "display_phone": "(512) 465-2107", "distance": 415.55231594517346}, {"id": "Fdn-JblBEB_3z856yLjlMQ", "alias": "east-side-king-austin-13", "name": "East Side King", "image_url": "https://s3-media2.fl.yelpcdn.com/bphoto/W9NNY41H50RL3RSB9Z2mOw/o.jpg", "is_closed": false, "url": "https://www.yelp.com/biz/east-side-king-austin-13?adjust_creative=Yv6QPpIAqCPQuHpWZNwgeA&utm_campaign=yelp_api_v3&utm_medium=api_v3_business_search&utm_source=Yv6QPpIAqCPQuHpWZNwgeA", "review_count": 484, "categories": [{"alias": "asianfusion", "title": "Asian Fusion"}], "rating": 4.0, "coordinates": {"latitude": 30.2475757598877, "longitude": -97.7750549316406}, "transactions": ["delivery", "pickup"], "price": "$$", "location": {"address1": "2310 S Lamar Blvd", "address2": "", "address3": "", "city": "Austin", "zip_code": "78704", "country": "US", "state": "TX", "display_address": ["2310 S Lamar Blvd", "Austin, TX 78704"]}, "phone": "+15123838382", "display_phone": "(512) 383-8382", "distance": 3791.5458549005125}, {"id": "7CXy5h3u_aWsK9qov6B4rg", "alias": "xian-sushi-and-noodle-austin", "name": "Xian Sushi and Noodle", "image_url": "https://s3-media2.fl.yelpcdn.com/bphoto/FEaQS93Xfm6xQdauuDCajQ/o.jpg", "is_closed": false, "url": "https://www.yelp.com/biz/xian-sushi-and-noodle-austin?adjust_creative=Yv6QPpIAqCPQuHpWZNwgeA&utm_campaign=yelp_api_v3&utm_medium=api_v3_business_search&utm_source=Yv6QPpIAqCPQuHpWZNwgeA", "review_count": 626, "categories": [{"alias": "sushi", "title": "Sushi Bars"}, {"alias": "chinese", "title": "Chinese"}, {"alias": "noodles", "title": "Noodles"}], "rating": 4.0, "coordinates": {"latitude": 30.303073884269836, "longitude": -97.6991645424319}, "transactions": ["delivery", "pickup"], "price": "$$", "location": {"address1": "1801 E 51st St", "address2": "", "address3": "Bldg C370", "city": "Austin", "zip_code": "78723", "country": "US", "state": "TX", "display_address": ["1801 E 51st St", "Bldg C370", "Austin, TX 78723"]}, "phone": "+15124697878", "display_phone": "(512) 469-7878", "distance": 5782.632599567851}, {"id": "4sfF1paqVfXvzAIdzs6MQg", "alias": "uchiko-austin", "name": "Uchiko", "image_url": "https://s3-media4.fl.yelpcdn.com/bphoto/OKVX6mxiC4_cTPrn1duF4Q/o.jpg", "is_closed": false, "url": "https://www.yelp.com/biz/uchiko-austin?adjust_creative=Yv6QPpIAqCPQuHpWZNwgeA&utm_campaign=yelp_api_v3&utm_medium=api_v3_business_search&utm_source=Yv6QPpIAqCPQuHpWZNwgeA", "review_count": 1946, "categories": [{"alias": "sushi", "title": "Sushi Bars"}, {"alias": "gluten_free", "title": "Gluten-Free"}, {"alias": "japanese", "title": "Japanese"}], "rating": 4.5, "coordinates": {"latitude": 30.31067, "longitude": -97.74}, "transactions": ["delivery"], "price": "$$$$", "location": {"address1": "4200 N Lamar Blvd", "address2": "Ste 140", "address3": "", "city": "Austin", "zip_code": "78756", "country": "US", "state": "TX", "display_address": ["4200 N Lamar Blvd", "Ste 140", "Austin, TX 78756"]}, "phone": "+15129164808", "display_phone": "(512) 916-4808", "distance": 4842.167605566778}, {"id": "cV8JJfvSbvEPil3B7583Pw", "alias": "kiin-di-austin", "name": "Kiin Di", "image_url": "https://s3-media3.fl.yelpcdn.com/bphoto/WcADPoRBv2zsVRBMzx8ktw/o.jpg", "is_closed": false, "url": "https://www.yelp.com/biz/kiin-di-austin?adjust_creative=Yv6QPpIAqCPQuHpWZNwgeA&utm_campaign=yelp_api_v3&utm_medium=api_v3_business_search&utm_source=Yv6QPpIAqCPQuHpWZNwgeA", "review_count": 63, "categories": [{"alias": "foodtrucks", "title": "Food Trucks"}, {"alias": "thai", "title": "Thai"}], "rating": 4.5, "coordinates": {"latitude": 30.24942, "longitude": -97.76701}, "transactions": ["delivery"], "price": "$$", "location": {"address1": "1901 S Lamar Blvd", "address2": "", "address3": null, "city": "Austin", "zip_code": "78704", "country": "US", "state": "TX", "display_address": ["1901 S Lamar Blvd", "Austin, TX 78704"]}, "phone": "+15125865791", "display_phone": "(512) 586-5791", "distance": 3044.830090075654}, {"id": "7SblTRJY2unu553HwbC2qA", "alias": "glory-hole-hot-dogs-austin", "name": "Glory Hole Hot Dogs", "image_url": "https://s3-media3.fl.yelpcdn.com/bphoto/gAumMECNNLSRT0wT51poLA/o.jpg", "is_closed": false, "url": "https://www.yelp.com/biz/glory-hole-hot-dogs-austin?adjust_creative=Yv6QPpIAqCPQuHpWZNwgeA&utm_campaign=yelp_api_v3&utm_medium=api_v3_business_search&utm_source=Yv6QPpIAqCPQuHpWZNwgeA", "review_count": 65, "categories": [{"alias": "hotdog", "title": "Hot Dogs"}, {"alias": "foodtrucks", "title": "Food Trucks"}], "rating": 4.0, "coordinates": {"latitude": 30.262683, "longitude": -97.727538}, "transactions": ["delivery"], "location": {"address1": "1501 E 6th St", "address2": null, "address3": "", "city": "Austin", "zip_code": "78702", "country": "US", "state": "TX", "display_address": ["1501 E 6th St", "Austin, TX 78702"]}, "phone": "", "display_phone": "", "distance": 1548.8866921958995}, {"id": "_7Jg-PLTf0d7u_IZiJ4ISw", "alias": "barchi-sushi-austin", "name": "BarChi Sushi", "image_url": "https://s3-media2.fl.yelpcdn.com/bphoto/ti90bCsiGq_6CxWK_lnhbA/o.jpg", "is_closed": false, "url": "https://www.yelp.com/biz/barchi-sushi-austin?adjust_creative=Yv6QPpIAqCPQuHpWZNwgeA&utm_campaign=yelp_api_v3&utm_medium=api_v3_business_search&utm_source=Yv6QPpIAqCPQuHpWZNwgeA", "review_count": 754, "categories": [{"alias": "sushi", "title": "Sushi Bars"}, {"alias": "bars", "title": "Bars"}, {"alias": "japanese", "title": "Japanese"}], "rating": 3.5, "coordinates": {"latitude": 30.265278, "longitude": -97.7454714}, "transactions": ["restaurant_reservation", "delivery"], "price": "$$", "location": {"address1": "206 Colorado St", "address2": "", "address3": "", "city": "Austin", "zip_code": "78701", "country": "US", "state": "TX", "display_address": ["206 Colorado St", "Austin, TX 78701"]}, "phone": "+15123825557", "display_phone": "(512) 382-5557", "distance": 336.2937644863083}, {"id": "qR-kjkED4bnRSSMeg5k1gg", "alias": "elizabeth-street-cafe-austin", "name": "Elizabeth Street Cafe", "image_url": "https://s3-media3.fl.yelpcdn.com/bphoto/qz0UKTBVrW2eiyeYGGV1kw/o.jpg", "is_closed": false, "url": "https://www.yelp.com/biz/elizabeth-street-cafe-austin?adjust_creative=Yv6QPpIAqCPQuHpWZNwgeA&utm_campaign=yelp_api_v3&utm_medium=api_v3_business_search&utm_source=Yv6QPpIAqCPQuHpWZNwgeA", "review_count": 1514, "categories": [{"alias": "vietnamese", "title": "Vietnamese"}, {"alias": "bars", "title": "Bars"}, {"alias": "breakfast_brunch", "title": "Breakfast & Brunch"}], "rating": 3.5, "coordinates": {"latitude": 30.2498075797415, "longitude": -97.7546855061582}, "transactions": ["delivery"], "price": "$$", "location": {"address1": "1501 S First St", "address2": "", "address3": "", "city": "Austin", "zip_code": "78704", "country": "US", "state": "TX", "display_address": ["1501 S First St", "Austin, TX 78704"]}, "phone": "+15122912881", "display_phone": "(512) 291-2881", "distance": 2248.247333963431}, {"id": "K6Xm4kI1I2HPssM9FgXNsA", "alias": "via-313-pizza-west-6th-austin", "name": "Via 313 Pizza", "image_url": "https://s3-media2.fl.yelpcdn.com/bphoto/4GY0Mgnvmea03jbbuC9q7g/o.jpg", "is_closed": false, "url": "https://www.yelp.com/biz/via-313-pizza-west-6th-austin?adjust_creative=Yv6QPpIAqCPQuHpWZNwgeA&utm_campaign=yelp_api_v3&utm_medium=api_v3_business_search&utm_source=Yv6QPpIAqCPQuHpWZNwgeA", "review_count": 790, "categories": [{"alias": "pizza", "title": "Pizza"}], "rating": 4.5, "coordinates": {"latitude": 30.26997, "longitude": -97.74852966441767}, "transactions": ["delivery", "pickup"], "price": "$$", "location": {"address1": "600 W 6th St", "address2": null, "address3": "", "city": "Austin", "zip_code": "78701", "country": "US", "state": "TX", "display_address": ["600 W 6th St", "Austin, TX 78701"]}, "phone": "+15129391927", "display_phone": "(512) 939-1927", "distance": 630.6847308726838}, {"id": "jRdMmtb9jE_0QysMeEOnEA", "alias": "saigon-le-vendeur-austin", "name": "Saigon Le Vendeur", "image_url": "https://s3-media2.fl.yelpcdn.com/bphoto/5dI3duemAFuCdSc-gi7ydg/o.jpg", "is_closed": false, "url": "https://www.yelp.com/biz/saigon-le-vendeur-austin?adjust_creative=Yv6QPpIAqCPQuHpWZNwgeA&utm_campaign=yelp_api_v3&utm_medium=api_v3_business_search&utm_source=Yv6QPpIAqCPQuHpWZNwgeA", "review_count": 301, "categories": [{"alias": "foodtrucks", "title": "Food Trucks"}, {"alias": "vietnamese", "title": "Vietnamese"}], "rating": 4.5, "coordinates": {"latitude": 30.2613162994385, "longitude": -97.7145767211914}, "transactions": ["delivery", "pickup"], "price": "$", "location": {"address1": "2404 E 7th St", "address2": null, "address3": "", "city": "Austin", "zip_code": "78702", "country": "US", "state": "TX", "display_address": ["2404 E 7th St", "Austin, TX 78702"]}, "phone": "+15123516916", "display_phone": "(512) 351-6916", "distance": 2788.3493490731958}, {"id": "CqOkl94q9ttvYNWIITA8ow", "alias": "swifts-attic-austin", "name": "Swift's Attic", "image_url": "https://s3-media2.fl.yelpcdn.com/bphoto/gBE9-X2yfDWuBxl49iw1NA/o.jpg", "is_closed": false, "url": "https://www.yelp.com/biz/swifts-attic-austin?adjust_creative=Yv6QPpIAqCPQuHpWZNwgeA&utm_campaign=yelp_api_v3&utm_medium=api_v3_business_search&utm_source=Yv6QPpIAqCPQuHpWZNwgeA", "review_count": 1102, "categories": [{"alias": "newamerican", "title": "American (New)"}, {"alias": "gastropubs", "title": "Gastropubs"}, {"alias": "tapas", "title": "Tapas Bars"}], "rating": 4.0, "coordinates": {"latitude": 30.26563, "longitude": -97.74337}, "transactions": ["delivery"], "price": "$$$", "location": {"address1": "315 Congress Ave", "address2": "Ste 200", "address3": "", "city": "Austin", "zip_code": "78701", "country": "US", "state": "TX", "display_address": ["315 Congress Ave", "Ste 200", "Austin, TX 78701"]}, "phone": "+15124828842", "display_phone": "(512) 482-8842", "distance": 181.1363631614806}, {"id": "HWzfD5_8s533OJLbwjGXnA", "alias": "super-thai-cuisine-austin", "name": "Super Thai Cuisine", "image_url": "https://s3-media1.fl.yelpcdn.com/bphoto/J1u-9FRzxaM0lVSMnMeDaA/o.jpg", "is_closed": false, "url": "https://www.yelp.com/biz/super-thai-cuisine-austin?adjust_creative=Yv6QPpIAqCPQuHpWZNwgeA&utm_campaign=yelp_api_v3&utm_medium=api_v3_business_search&utm_source=Yv6QPpIAqCPQuHpWZNwgeA", "review_count": 270, "categories": [{"alias": "thai", "title": "Thai"}], "rating": 4.0, "coordinates": {"latitude": 30.24926, "longitude": -97.76855}, "transactions": ["delivery"], "price": "$$", "location": {"address1": "2024 S Lamar Blvd", "address2": "", "address3": null, "city": "Austin", "zip_code": "78704", "country": "US", "state": "TX", "display_address": ["2024 S Lamar Blvd", "Austin, TX 78704"]}, "phone": "+15122847004", "display_phone": "(512) 284-7004", "distance": 3174.317523504772}, {"id": "2WEp9uJef3bO9osNNInLCA", "alias": "k-bop-austin-2", "name": "K-Bop", "image_url": "https://s3-media4.fl.yelpcdn.com/bphoto/sPjv4i-ak4bEq0f5lE_JDw/o.jpg", "is_closed": false, "url": "https://www.yelp.com/biz/k-bop-austin-2?adjust_creative=Yv6QPpIAqCPQuHpWZNwgeA&utm_campaign=yelp_api_v3&utm_medium=api_v3_business_search&utm_source=Yv6QPpIAqCPQuHpWZNwgeA", "review_count": 228, "categories": [{"alias": "korean", "title": "Korean"}, {"alias": "bubbletea", "title": "Bubble Tea"}, {"alias": "juicebars", "title": "Juice Bars & Smoothies"}], "rating": 4.0, "coordinates": {"latitude": 30.2829, "longitude": -97.74238}, "transactions": ["delivery", "pickup"], "price": "$", "location": {"address1": "2002 Guadalupe St", "address2": "Ste B", "address3": "", "city": "Austin", "zip_code": "78705", "country": "US", "state": "TX", "display_address": ["2002 Guadalupe St", "Ste B", "Austin, TX 78705"]}, "phone": "+17372225501", "display_phone": "(737) 222-5501", "distance": 1738.8418432245264}, {"id": "skvuuJVurCYV6J9QcAC0SA", "alias": "il-brutto-austin-2", "name": "Il Brutto", "image_url": "https://s3-media4.fl.yelpcdn.com/bphoto/D_9ylT9_78pXL9P-ybNNbQ/o.jpg", "is_closed": false, "url": "https://www.yelp.com/biz/il-brutto-austin-2?adjust_creative=Yv6QPpIAqCPQuHpWZNwgeA&utm_campaign=yelp_api_v3&utm_medium=api_v3_business_search&utm_source=Yv6QPpIAqCPQuHpWZNwgeA", "review_count": 370, "categories": [{"alias": "italian", "title": "Italian"}, {"alias": "cocktailbars", "title": "Cocktail Bars"}, {"alias": "pizza", "title": "Pizza"}], "rating": 4.0, "coordinates": {"latitude": 30.2628204676926, "longitude": -97.7263318834324}, "transactions": ["delivery"], "price": "$$$", "location": {"address1": "1601 E 6th St", "address2": null, "address3": "", "city": "Austin", "zip_code": "78702", "country": "US", "state": "TX", "display_address": ["1601 E 6th St", "Austin, TX 78702"]}, "phone": "+15125808779", "display_phone": "(512) 580-8779", "distance": 1654.2504960310207}, {"id": "FZ3M3K7yIvIj770TE4JpKw", "alias": "omas-kitchen-austin", "name": "Oma's Kitchen", "image_url": "https://s3-media4.fl.yelpcdn.com/bphoto/n7jMsRzEpX7baM7L4vQHaA/o.jpg", "is_closed": false, "url": "https://www.yelp.com/biz/omas-kitchen-austin?adjust_creative=Yv6QPpIAqCPQuHpWZNwgeA&utm_campaign=yelp_api_v3&utm_medium=api_v3_business_search&utm_source=Yv6QPpIAqCPQuHpWZNwgeA", "review_count": 99, "categories": [{"alias": "korean", "title": "Korean"}], "rating": 4.0, "coordinates": {"latitude": 30.2829005570476, "longitude": -97.7417960110667}, "transactions": [], "price": "$", "location": {"address1": "2025 Guadalupe St", "address2": "", "address3": "", "city": "Austin", "zip_code": "78701", "country": "US", "state": "TX", "display_address": ["2025 Guadalupe St", "Austin, TX 78701"]}, "phone": "+15124728018", "display_phone": "(512) 472-8018", "distance": 1746.2563024519532}, {"id": "yDH9wE7IPEA_hm-B5c_24w", "alias": "raku-sushi-and-asian-bistro-austin-2", "name": "Raku Sushi and Asian Bistro", "image_url": "https://s3-media2.fl.yelpcdn.com/bphoto/0VwEgm0M7l7y_jFEqO-zkA/o.jpg", "is_closed": false, "url": "https://www.yelp.com/biz/raku-sushi-and-asian-bistro-austin-2?adjust_creative=Yv6QPpIAqCPQuHpWZNwgeA&utm_campaign=yelp_api_v3&utm_medium=api_v3_business_search&utm_source=Yv6QPpIAqCPQuHpWZNwgeA", "review_count": 243, "categories": [{"alias": "sushi", "title": "Sushi Bars"}, {"alias": "japanese", "title": "Japanese"}, {"alias": "asianfusion", "title": "Asian Fusion"}], "rating": 3.5, "coordinates": {"latitude": 30.28669, "longitude": -97.74515}, "transactions": ["delivery", "pickup"], "price": "$$", "location": {"address1": "2222 Rio Grande St", "address2": "Ste 100", "address3": "", "city": "Austin", "zip_code": "78705", "country": "US", "state": "TX", "display_address": ["2222 Rio Grande St", "Ste 100", "Austin, TX 78705"]}, "phone": "+15122972778", "display_phone": "(512) 297-2778", "distance": 2167.009451568179}, {"id": "ZNwznJunPKKLyc-YSAbCcw", "alias": "mandala-kitchen-and-bar-austin-2", "name": "Mandala Kitchen & Bar", "image_url": "https://s3-media1.fl.yelpcdn.com/bphoto/orD3JosjhIJr3MgQYDxDvw/o.jpg", "is_closed": false, "url": "https://www.yelp.com/biz/mandala-kitchen-and-bar-austin-2?adjust_creative=Yv6QPpIAqCPQuHpWZNwgeA&utm_campaign=yelp_api_v3&utm_medium=api_v3_business_search&utm_source=Yv6QPpIAqCPQuHpWZNwgeA", "review_count": 257, "categories": [{"alias": "thai", "title": "Thai"}, {"alias": "bars", "title": "Bars"}, {"alias": "vietnamese", "title": "Vietnamese"}], "rating": 4.5, "coordinates": {"latitude": 30.255356, "longitude": -97.762147}, "transactions": ["delivery", "pickup"], "price": "$$", "location": {"address1": "1100 S Lamar Blvd", "address2": "Ste 1125", "address3": null, "city": "Austin", "zip_code": "78704", "country": "US", "state": "TX", "display_address": ["1100 S Lamar Blvd", "Ste 1125", "Austin, TX 78704"]}, "phone": "+15123861038", "display_phone": "(512) 386-1038", "distance": 2279.846463771852}, {"id": "l4Omy0pUqTWM5--A5dlt9w", "alias": "benihana-austin-2", "name": "Benihana", "image_url": "https://s3-media1.fl.yelpcdn.com/bphoto/b5QHTxFo4UuJHUVHb1BaGw/o.jpg", "is_closed": false, "url": "https://www.yelp.com/biz/benihana-austin-2?adjust_creative=Yv6QPpIAqCPQuHpWZNwgeA&utm_campaign=yelp_api_v3&utm_medium=api_v3_business_search&utm_source=Yv6QPpIAqCPQuHpWZNwgeA", "review_count": 3, "categories": [{"alias": "teppanyaki", "title": "Teppanyaki"}], "rating": 1.0, "coordinates": {"latitude": 30.266302, "longitude": -97.744564}, "transactions": ["delivery", "pickup"], "location": {"address1": "117 W 4th St", "address2": "Ste 300", "address3": null, "city": "Austin", "zip_code": "78701", "country": "US", "state": "TX", "display_address": ["117 W 4th St", "Ste 300", "Austin, TX 78701"]}, "phone": "", "display_phone": "", "distance": 204.19830281084631}, {"id": "6OcDg2ZECfSCHckCjMNYdA", "alias": "little-thai-food-austin", "name": "Little Thai Food", "image_url": "https://s3-media3.fl.yelpcdn.com/bphoto/22BEir8GKDHId49jsNN6Fw/o.jpg", "is_closed": false, "url": "https://www.yelp.com/biz/little-thai-food-austin?adjust_creative=Yv6QPpIAqCPQuHpWZNwgeA&utm_campaign=yelp_api_v3&utm_medium=api_v3_business_search&utm_source=Yv6QPpIAqCPQuHpWZNwgeA", "review_count": 237, "categories": [{"alias": "thai", "title": "Thai"}, {"alias": "foodtrucks", "title": "Food Trucks"}, {"alias": "seafood", "title": "Seafood"}], "rating": 4.0, "coordinates": {"latitude": 30.2517442701245, "longitude": -97.7539861}, "transactions": ["delivery"], "price": "$", "location": {"address1": "1207 S 1st St", "address2": "", "address3": "", "city": "Austin", "zip_code": "78704", "country": "US", "state": "TX", "display_address": ["1207 S 1st St", "Austin, TX 78704"]}, "phone": "+15125679299", "display_phone": "(512) 567-9299", "distance": 2029.300252616172}, {"id": "gXlrgQkkdCc9iESuRlN_Uw", "alias": "la-tunita-512-austin", "name": "La Tunita 512", "image_url": "https://s3-media2.fl.yelpcdn.com/bphoto/mdgiwreDrqz6axaRn3DcsA/o.jpg", "is_closed": false, "url": "https://www.yelp.com/biz/la-tunita-512-austin?adjust_creative=Yv6QPpIAqCPQuHpWZNwgeA&utm_campaign=yelp_api_v3&utm_medium=api_v3_business_search&utm_source=Yv6QPpIAqCPQuHpWZNwgeA", "review_count": 133, "categories": [{"alias": "foodtrucks", "title": "Food Trucks"}, {"alias": "tacos", "title": "Tacos"}], "rating": 5.0, "coordinates": {"latitude": 30.2295, "longitude": -97.735966}, "transactions": ["delivery"], "price": "$", "location": {"address1": "2400 Burleson Rd", "address2": "", "address3": null, "city": "Austin", "zip_code": "78741", "country": "US", "state": "TX", "display_address": ["2400 Burleson Rd", "Austin, TX 78741"]}, "phone": "+15126790708", "display_phone": "(512) 679-0708", "distance": 4245.058306945561}, {"id": "AcFt364BrHyMu3VrSCKMOw", "alias": "salty-sow-austin", "name": "Salty Sow", "image_url": "https://s3-media3.fl.yelpcdn.com/bphoto/9L94UUzP7_maYsOWjxhZJg/o.jpg", "is_closed": false, "url": "https://www.yelp.com/biz/salty-sow-austin?adjust_creative=Yv6QPpIAqCPQuHpWZNwgeA&utm_campaign=yelp_api_v3&utm_medium=api_v3_business_search&utm_source=Yv6QPpIAqCPQuHpWZNwgeA", "review_count": 2940, "categories": [{"alias": "tradamerican", "title": "American (Traditional)"}, {"alias": "gastropubs", "title": "Gastropubs"}], "rating": 4.5, "coordinates": {"latitude": 30.2836497259461, "longitude": -97.7213180065155}, "transactions": ["delivery"], "price": "$$", "location": {"address1": "1917 Manor Rd", "address2": "", "address3": "", "city": "Austin", "zip_code": "78722", "country": "US", "state": "TX", "display_address": ["1917 Manor Rd", "Austin, TX 78722"]}, "phone": "+15123912337", "display_phone": "(512) 391-2337", "distance": 2754.627855058456}, {"id": "08wLD2pUdZV73zHywMpREA", "alias": "musashino-sushi-dokoro-austin", "name": "Musashino Sushi Dokoro", "image_url": "https://s3-media2.fl.yelpcdn.com/bphoto/vLRZwOk112C81jMHfcoXiA/o.jpg", "is_closed": false, "url": "https://www.yelp.com/biz/musashino-sushi-dokoro-austin?adjust_creative=Yv6QPpIAqCPQuHpWZNwgeA&utm_campaign=yelp_api_v3&utm_medium=api_v3_business_search&utm_source=Yv6QPpIAqCPQuHpWZNwgeA", "review_count": 751, "categories": [{"alias": "japanese", "title": "Japanese"}, {"alias": "sushi", "title": "Sushi Bars"}, {"alias": "desserts", "title": "Desserts"}], "rating": 4.0, "coordinates": {"latitude": 30.2980839, "longitude": -97.7475817}, "transactions": ["delivery"], "price": "$$$", "location": {"address1": "2905 San Gabriel St", "address2": "Ste 200", "address3": "", "city": "Austin", "zip_code": "78705", "country": "US", "state": "TX", "display_address": ["2905 San Gabriel St", "Ste 200", "Austin, TX 78705"]}, "phone": "+15127958593", "display_phone": "(512) 795-8593", "distance": 3462.7241288355526}, {"id": "Phqwjk7x11WMAd-rVGbY0A", "alias": "cocos-cafe-austin-4", "name": "CoCo's Cafe", "image_url": "https://s3-media2.fl.yelpcdn.com/bphoto/kVK6hlN4niccpwIxXiHVMA/o.jpg", "is_closed": false, "url": "https://www.yelp.com/biz/cocos-cafe-austin-4?adjust_creative=Yv6QPpIAqCPQuHpWZNwgeA&utm_campaign=yelp_api_v3&utm_medium=api_v3_business_search&utm_source=Yv6QPpIAqCPQuHpWZNwgeA", "review_count": 432, "categories": [{"alias": "coffee", "title": "Coffee & Tea"}, {"alias": "taiwanese", "title": "Taiwanese"}, {"alias": "bubbletea", "title": "Bubble Tea"}], "rating": 3.5, "coordinates": {"latitude": 30.2825503330558, "longitude": -97.7422962817638}, "transactions": ["pickup"], "price": "$", "location": {"address1": "1910 Guadalupe St", "address2": "", "address3": "", "city": "Austin", "zip_code": "78705", "country": "US", "state": "TX", "display_address": ["1910 Guadalupe St", "Austin, TX 78705"]}, "phone": "+15122369398", "display_phone": "(512) 236-9398", "distance": 1705.3709726642264}, {"id": "hBXgiEy2MbV7pL2jCnrB1w", "alias": "geraldines-austin", "name": "Geraldine's", "image_url": "https://s3-media3.fl.yelpcdn.com/bphoto/DPL6Z0uzmYStgwvI4Yd1bA/o.jpg", "is_closed": false, "url": "https://www.yelp.com/biz/geraldines-austin?adjust_creative=Yv6QPpIAqCPQuHpWZNwgeA&utm_campaign=yelp_api_v3&utm_medium=api_v3_business_search&utm_source=Yv6QPpIAqCPQuHpWZNwgeA", "review_count": 466, "categories": [{"alias": "newamerican", "title": "American (New)"}, {"alias": "bars", "title": "Bars"}, {"alias": "musicvenues", "title": "Music Venues"}], "rating": 3.5, "coordinates": {"latitude": 30.26029, "longitude": -97.73927}, "transactions": ["delivery"], "price": "$$$", "location": {"address1": "605 Davis St", "address2": "", "address3": "", "city": "Austin", "zip_code": "78701", "country": "US", "state": "TX", "display_address": ["605 Davis St", "Austin, TX 78701"]}, "phone": "+15124764755", "display_phone": "(512) 476-4755", "distance": 890.8517325812415}, {"id": "jUiS3w1HX6qhEzNduA3oVw", "alias": "tysons-tacos-austin", "name": "Tyson's Tacos", "image_url": "https://s3-media1.fl.yelpcdn.com/bphoto/mafthUqIzfHIvwn8wyKQbw/o.jpg", "is_closed": false, "url": "https://www.yelp.com/biz/tysons-tacos-austin?adjust_creative=Yv6QPpIAqCPQuHpWZNwgeA&utm_campaign=yelp_api_v3&utm_medium=api_v3_business_search&utm_source=Yv6QPpIAqCPQuHpWZNwgeA", "review_count": 919, "categories": [{"alias": "mexican", "title": "Mexican"}, {"alias": "coffee", "title": "Coffee & Tea"}, {"alias": "breakfast_brunch", "title": "Breakfast & Brunch"}], "rating": 4.0, "coordinates": {"latitude": 30.3096229820831, "longitude": -97.7153485985112}, "transactions": ["delivery", "pickup"], "price": "$", "location": {"address1": "4905 Airport Blvd", "address2": "", "address3": "", "city": "Austin", "zip_code": "78751", "country": "US", "state": "TX", "display_address": ["4905 Airport Blvd", "Austin, TX 78751"]}, "phone": "+15124513326", "display_phone": "(512) 451-3326", "distance": 5401.136064382222}, {"id": "ILHdpOs6mPqKrxnirNuJcw", "alias": "cm-smokehouse-austin", "name": "CM Smokehouse", "image_url": "https://s3-media2.fl.yelpcdn.com/bphoto/-xjFFJxOkv0hwFZK-_CFLw/o.jpg", "is_closed": false, "url": "https://www.yelp.com/biz/cm-smokehouse-austin?adjust_creative=Yv6QPpIAqCPQuHpWZNwgeA&utm_campaign=yelp_api_v3&utm_medium=api_v3_business_search&utm_source=Yv6QPpIAqCPQuHpWZNwgeA", "review_count": 11, "categories": [{"alias": "foodtrucks", "title": "Food Trucks"}, {"alias": "bbq", "title": "Barbeque"}, {"alias": "sandwiches", "title": "Sandwiches"}], "rating": 4.5, "coordinates": {"latitude": 30.24823325500849, "longitude": -97.76869084332643}, "transactions": [], "location": {"address1": "2027 S Lamar Blvd", "address2": "", "address3": null, "city": "Austin", "zip_code": "78704", "country": "US", "state": "TX", "display_address": ["2027 S Lamar Blvd", "Austin, TX 78704"]}, "phone": "", "display_phone": "", "distance": 3263.0176989491342}, {"id": "faQvvQgGX4cg5lBexE65sA", "alias": "marker-10-austin-2", "name": "Marker 10", "image_url": "https://s3-media4.fl.yelpcdn.com/bphoto/IfAWAuTsb5nZmb9C8ur9Sg/o.jpg", "is_closed": false, "url": "https://www.yelp.com/biz/marker-10-austin-2?adjust_creative=Yv6QPpIAqCPQuHpWZNwgeA&utm_campaign=yelp_api_v3&utm_medium=api_v3_business_search&utm_source=Yv6QPpIAqCPQuHpWZNwgeA", "review_count": 93, "categories": [{"alias": "lounges", "title": "Lounges"}, {"alias": "sushi", "title": "Sushi Bars"}, {"alias": "newamerican", "title": "American (New)"}], "rating": 3.5, "coordinates": {"latitude": 30.2609943392122, "longitude": -97.7468085110451}, "transactions": ["delivery"], "price": "$$", "location": {"address1": "208 Barton Springs Rd", "address2": "", "address3": "", "city": "Austin", "zip_code": "78704", "country": "US", "state": "TX", "display_address": ["208 Barton Springs Rd", "Austin, TX 78704"]}, "phone": "+15124771234", "display_phone": "(512) 477-1234", "distance": 792.6830811158129}, {"id": "uBH8GHA6_RODaJGaOT-Cdw", "alias": "bouldin-acres-austin", "name": "Bouldin Acres", "image_url": "https://s3-media1.fl.yelpcdn.com/bphoto/4EWT_8uE4AxLw7_xRyYATQ/o.jpg", "is_closed": false, "url": "https://www.yelp.com/biz/bouldin-acres-austin?adjust_creative=Yv6QPpIAqCPQuHpWZNwgeA&utm_campaign=yelp_api_v3&utm_medium=api_v3_business_search&utm_source=Yv6QPpIAqCPQuHpWZNwgeA", "review_count": 112, "categories": [{"alias": "bbq", "title": "Barbeque"}, {"alias": "sportsbars", "title": "Sports Bars"}, {"alias": "pickleball", "title": "Pickleball"}], "rating": 4.0, "coordinates": {"latitude": 30.248231831663148, "longitude": -97.7686448}, "transactions": [], "price": "$$", "location": {"address1": "2027 S Lamar Blvd", "address2": "", "address3": null, "city": "Austin", "zip_code": "78704", "country": "US", "state": "TX", "display_address": ["2027 S Lamar Blvd", "Austin, TX 78704"]}, "phone": "+15125360132", "display_phone": "(512) 536-0132", "distance": 3259.749502160514}, {"id": "mcwsZGskQ9O4d-kKzV473A", "alias": "better-half-coffee-and-cocktails-austin", "name": "Better Half Coffee & Cocktails", "image_url": "https://s3-media2.fl.yelpcdn.com/bphoto/gO3SqV_R0-CfEh55IPEQgQ/o.jpg", "is_closed": false, "url": "https://www.yelp.com/biz/better-half-coffee-and-cocktails-austin?adjust_creative=Yv6QPpIAqCPQuHpWZNwgeA&utm_campaign=yelp_api_v3&utm_medium=api_v3_business_search&utm_source=Yv6QPpIAqCPQuHpWZNwgeA", "review_count": 416, "categories": [{"alias": "cafes", "title": "Cafes"}, {"alias": "cocktailbars", "title": "Cocktail Bars"}], "rating": 4.0, "coordinates": {"latitude": 30.27137, "longitude": -97.75839}, "transactions": ["delivery", "pickup"], "price": "$$", "location": {"address1": "406 Walsh St", "address2": "", "address3": null, "city": "Austin", "zip_code": "78703", "country": "US", "state": "TX", "display_address": ["406 Walsh St", "Austin, TX 78703"]}, "phone": "+15126450786", "display_phone": "(512) 645-0786", "distance": 1583.372380037523}, {"id": "vEJy_uS9_3kB_kxTfDrgfg", "alias": "pho-thai-son-ut-campus-austin-3", "name": "Pho Thai Son - UT Campus", "image_url": "https://s3-media2.fl.yelpcdn.com/bphoto/5nE9yqS8mChWsjBj-gGCNg/o.jpg", "is_closed": false, "url": "https://www.yelp.com/biz/pho-thai-son-ut-campus-austin-3?adjust_creative=Yv6QPpIAqCPQuHpWZNwgeA&utm_campaign=yelp_api_v3&utm_medium=api_v3_business_search&utm_source=Yv6QPpIAqCPQuHpWZNwgeA", "review_count": 245, "categories": [{"alias": "vietnamese", "title": "Vietnamese"}, {"alias": "sushi", "title": "Sushi Bars"}, {"alias": "thai", "title": "Thai"}], "rating": 3.0, "coordinates": {"latitude": 30.28263, "longitude": -97.74241}, "transactions": ["delivery", "pickup"], "price": "$", "location": {"address1": "1908 Guadalupe St", "address2": "", "address3": "", "city": "Austin", "zip_code": "78705", "country": "US", "state": "TX", "display_address": ["1908 Guadalupe St", "Austin, TX 78705"]}, "phone": "+15124820146", "display_phone": "(512) 482-0146", "distance": 1699.066337395968}, {"id": "UiiIGT4lbFQhuFIiI1P7DA", "alias": "true-food-kitchen-austin-5", "name": "True Food Kitchen", "image_url": "https://s3-media3.fl.yelpcdn.com/bphoto/z5wundMbusus6L25u5RJsQ/o.jpg", "is_closed": false, "url": "https://www.yelp.com/biz/true-food-kitchen-austin-5?adjust_creative=Yv6QPpIAqCPQuHpWZNwgeA&utm_campaign=yelp_api_v3&utm_medium=api_v3_business_search&utm_source=Yv6QPpIAqCPQuHpWZNwgeA", "review_count": 1031, "categories": [{"alias": "newamerican", "title": "American (New)"}, {"alias": "vegan", "title": "Vegan"}, {"alias": "vegetarian", "title": "Vegetarian"}], "rating": 4.5, "coordinates": {"latitude": 30.267619, "longitude": -97.752138}, "transactions": ["delivery", "pickup"], "price": "$$", "location": {"address1": "222 West Ave", "address2": "", "address3": null, "city": "Austin", "zip_code": "78701", "country": "US", "state": "TX", "display_address": ["222 West Ave", "Austin, TX 78701"]}, "phone": "+15127772430", "display_phone": "(512) 777-2430", "distance": 899.1973072727286}, {"id": "MFVr6pMQxFsUwdEfUueaCQ", "alias": "lick-honest-ice-creams-austin-3", "name": "Lick Honest Ice Creams", "image_url": "https://s3-media1.fl.yelpcdn.com/bphoto/WcDZSc0kAZUMFpiSMdu2yg/o.jpg", "is_closed": false, "url": "https://www.yelp.com/biz/lick-honest-ice-creams-austin-3?adjust_creative=Yv6QPpIAqCPQuHpWZNwgeA&utm_campaign=yelp_api_v3&utm_medium=api_v3_business_search&utm_source=Yv6QPpIAqCPQuHpWZNwgeA", "review_count": 1355, "categories": [{"alias": "icecream", "title": "Ice Cream & Frozen Yogurt"}], "rating": 4.5, "coordinates": {"latitude": 30.2556546727507, "longitude": -97.7627457002276}, "transactions": ["delivery", "pickup"], "price": "$$", "location": {"address1": "1100 S Lamar Blvd", "address2": "Ste 1135", "address3": "", "city": "Austin", "zip_code": "78704", "country": "US", "state": "TX", "display_address": ["1100 S Lamar Blvd", "Ste 1135", "Austin, TX 78704"]}, "phone": "+15123635622", "display_phone": "(512) 363-5622", "distance": 2308.315016072235}, {"id": "PntbqCQ291VVOsXM24ta3A", "alias": "zilker-brewing-company-and-taproom-austin", "name": "Zilker Brewing Company and Taproom", "image_url": "https://s3-media3.fl.yelpcdn.com/bphoto/l-jmLHP7G7g8Smn_yuwY3A/o.jpg", "is_closed": false, "url": "https://www.yelp.com/biz/zilker-brewing-company-and-taproom-austin?adjust_creative=Yv6QPpIAqCPQuHpWZNwgeA&utm_campaign=yelp_api_v3&utm_medium=api_v3_business_search&utm_source=Yv6QPpIAqCPQuHpWZNwgeA", "review_count": 280, "categories": [{"alias": "breweries", "title": "Breweries"}, {"alias": "beerbar", "title": "Beer Bar"}], "rating": 4.5, "coordinates": {"latitude": 30.262096, "longitude": -97.72454}, "transactions": [], "price": "$", "location": {"address1": "1701 E 6th St", "address2": null, "address3": "", "city": "Austin", "zip_code": "78702", "country": "US", "state": "TX", "display_address": ["1701 E 6th St", "Austin, TX 78702"]}, "phone": "+15127125590", "display_phone": "(512) 712-5590", "distance": 1841.7134443668474}, {"id": "aNX8OAI9CI662uxbWwsPHA", "alias": "flower-child-austin-4", "name": "Flower Child", "image_url": "https://s3-media4.fl.yelpcdn.com/bphoto/GwITqQz-K3N6HhV4Fu135w/o.jpg", "is_closed": false, "url": "https://www.yelp.com/biz/flower-child-austin-4?adjust_creative=Yv6QPpIAqCPQuHpWZNwgeA&utm_campaign=yelp_api_v3&utm_medium=api_v3_business_search&utm_source=Yv6QPpIAqCPQuHpWZNwgeA", "review_count": 337, "categories": [{"alias": "salad", "title": "Salad"}, {"alias": "newamerican", "title": "American (New)"}, {"alias": "bars", "title": "Bars"}], "rating": 4.5, "coordinates": {"latitude": 30.2660361, "longitude": -97.7496528}, "transactions": ["delivery"], "price": "$$", "location": {"address1": "500 W 2nd St", "address2": "Ste 133", "address3": null, "city": "Austin", "zip_code": "78701", "country": "US", "state": "TX", "display_address": ["500 W 2nd St", "Ste 133", "Austin, TX 78701"]}, "phone": "+15127774132", "display_phone": "(512) 777-4132", "distance": 672.4313609488794}, {"id": "uK3hclf6oje7rRAbUhPCLg", "alias": "sushi-junai-austin", "name": "Sushi Junai", "image_url": "https://s3-media2.fl.yelpcdn.com/bphoto/ntw8LBWXp_Ojyvirv1Zjpw/o.jpg", "is_closed": false, "url": "https://www.yelp.com/biz/sushi-junai-austin?adjust_creative=Yv6QPpIAqCPQuHpWZNwgeA&utm_campaign=yelp_api_v3&utm_medium=api_v3_business_search&utm_source=Yv6QPpIAqCPQuHpWZNwgeA", "review_count": 554, "categories": [{"alias": "sushi", "title": "Sushi Bars"}, {"alias": "japanese", "title": "Japanese"}], "rating": 3.5, "coordinates": {"latitude": 30.279045, "longitude": -97.741726}, "transactions": ["delivery", "pickup"], "price": "$$", "location": {"address1": "1612 Lavaca St", "address2": null, "address3": "", "city": "Austin", "zip_code": "78701", "country": "US", "state": "TX", "display_address": ["1612 Lavaca St", "Austin, TX 78701"]}, "phone": "+15123222428", "display_phone": "(512) 322-2428", "distance": 1318.105871187421}, {"id": "bZiIIUcpgxh8mpKMDhdqbA", "alias": "hopdoddy-burger-bar-austin", "name": "Hopdoddy Burger Bar", "image_url": "https://s3-media3.fl.yelpcdn.com/bphoto/isEobbaCKXB6DDIRXSu0Bg/o.jpg", "is_closed": false, "url": "https://www.yelp.com/biz/hopdoddy-burger-bar-austin?adjust_creative=Yv6QPpIAqCPQuHpWZNwgeA&utm_campaign=yelp_api_v3&utm_medium=api_v3_business_search&utm_source=Yv6QPpIAqCPQuHpWZNwgeA", "review_count": 4898, "categories": [{"alias": "burgers", "title": "Burgers"}, {"alias": "tradamerican", "title": "American (Traditional)"}], "rating": 4.0, "coordinates": {"latitude": 30.249649, "longitude": -97.749907}, "transactions": ["delivery", "pickup"], "price": "$$", "location": {"address1": "1400 S Congress Ave", "address2": "Ste A190", "address3": "", "city": "Austin", "zip_code": "78704", "country": "US", "state": "TX", "display_address": ["1400 S Congress Ave", "Ste A190", "Austin, TX 78704"]}, "phone": "+15122437505", "display_phone": "(512) 243-7505", "distance": 2069.977543981154}, {"id": "N20Ind9AWLbsCFFxtR_URQ", "alias": "ginos-vino-osteria-austin", "name": "Gino's Vino Osteria", "image_url": "https://s3-media2.fl.yelpcdn.com/bphoto/CvRSwtkO5qjrFc463G-P-w/o.jpg", "is_closed": false, "url": "https://www.yelp.com/biz/ginos-vino-osteria-austin?adjust_creative=Yv6QPpIAqCPQuHpWZNwgeA&utm_campaign=yelp_api_v3&utm_medium=api_v3_business_search&utm_source=Yv6QPpIAqCPQuHpWZNwgeA", "review_count": 385, "categories": [{"alias": "italian", "title": "Italian"}, {"alias": "wine_bars", "title": "Wine Bars"}], "rating": 4.5, "coordinates": {"latitude": 30.307265, "longitude": -97.706995}, "transactions": ["delivery"], "price": "$$$", "location": {"address1": "1239 E 51st St", "address2": "", "address3": "", "city": "Austin", "zip_code": "78723", "country": "US", "state": "TX", "display_address": ["1239 E 51st St", "Austin, TX 78723"]}, "phone": "+15123518426", "display_phone": "(512) 351-8426", "distance": 5624.788611112069}, {"id": "5y2zZGIE2a4tuEJ5FhSVrQ", "alias": "whole-foods-market-austin-17", "name": "Whole Foods Market", "image_url": "https://s3-media1.fl.yelpcdn.com/bphoto/GNQtLUvcAspmKRF_BB9G_A/o.jpg", "is_closed": false, "url": "https://www.yelp.com/biz/whole-foods-market-austin-17?adjust_creative=Yv6QPpIAqCPQuHpWZNwgeA&utm_campaign=yelp_api_v3&utm_medium=api_v3_business_search&utm_source=Yv6QPpIAqCPQuHpWZNwgeA", "review_count": 1261, "categories": [{"alias": "grocery", "title": "Grocery"}, {"alias": "healthmarkets", "title": "Health Markets"}, {"alias": "organic_stores", "title": "Organic Stores"}], "rating": 4.0, "coordinates": {"latitude": 30.270598, "longitude": -97.753388}, "transactions": ["delivery"], "price": "$$", "location": {"address1": "525 N Lamar Blvd", "address2": "", "address3": "", "city": "Austin", "zip_code": "78703", "country": "US", "state": "TX", "display_address": ["525 N Lamar Blvd", "Austin, TX 78703"]}, "phone": "+15125422200", "display_phone": "(512) 542-2200", "distance": 1085.2309537035844}, {"id": "zuCJJQOpvrAqVd9rIffGIQ", "alias": "h-e-b-plus-austin-2", "name": "H-E-B plus!", "image_url": "https://s3-media3.fl.yelpcdn.com/bphoto/jEacGgZH2DZ_NdkaKUUbVw/o.jpg", "is_closed": false, "url": "https://www.yelp.com/biz/h-e-b-plus-austin-2?adjust_creative=Yv6QPpIAqCPQuHpWZNwgeA&utm_campaign=yelp_api_v3&utm_medium=api_v3_business_search&utm_source=Yv6QPpIAqCPQuHpWZNwgeA", "review_count": 141, "categories": [{"alias": "grocery", "title": "Grocery"}], "rating": 2.5, "coordinates": {"latitude": 30.236235761778573, "longitude": -97.72225964451391}, "transactions": [], "price": "$", "location": {"address1": "2508 E Riverside Dr", "address2": "", "address3": "", "city": "Austin", "zip_code": "78741", "country": "US", "state": "TX", "display_address": ["2508 E Riverside Dr", "Austin, TX 78741"]}, "phone": "+15124483544", "display_phone": "(512) 448-3544", "distance": 3969.497022727484}, {"id": "9wyOrn0CLKVTVuMFUhwn2g", "alias": "hyde-park-market-austin-2", "name": "Hyde Park Market", "image_url": "https://s3-media1.fl.yelpcdn.com/bphoto/F0oqfnlbfT2brqW5deWupg/o.jpg", "is_closed": false, "url": "https://www.yelp.com/biz/hyde-park-market-austin-2?adjust_creative=Yv6QPpIAqCPQuHpWZNwgeA&utm_campaign=yelp_api_v3&utm_medium=api_v3_business_search&utm_source=Yv6QPpIAqCPQuHpWZNwgeA", "review_count": 98, "categories": [{"alias": "beer_and_wine", "title": "Beer, Wine & Spirits"}, {"alias": "convenience", "title": "Convenience Stores"}], "rating": 4.0, "coordinates": {"latitude": 30.30669, "longitude": -97.72445}, "transactions": [], "price": "$$", "location": {"address1": "4429 Duval St", "address2": "", "address3": "", "city": "Austin", "zip_code": "78751", "country": "US", "state": "TX", "display_address": ["4429 Duval St", "Austin, TX 78751"]}, "phone": "+15125244217", "display_phone": "(512) 524-4217", "distance": 4731.541573726594}, {"id": "XiSNw2yWDotqowgDEKVbpQ", "alias": "7-eleven-austin-66", "name": "7-Eleven", "image_url": "https://s3-media2.fl.yelpcdn.com/bphoto/Xn1Eru5aDtw3pZ0LcL-NNA/o.jpg", "is_closed": false, "url": "https://www.yelp.com/biz/7-eleven-austin-66?adjust_creative=Yv6QPpIAqCPQuHpWZNwgeA&utm_campaign=yelp_api_v3&utm_medium=api_v3_business_search&utm_source=Yv6QPpIAqCPQuHpWZNwgeA", "review_count": 3, "categories": [{"alias": "convenience", "title": "Convenience Stores"}, {"alias": "coffee", "title": "Coffee & Tea"}], "rating": 2.5, "coordinates": {"latitude": 30.2705487475455, "longitude": -97.7416310085983}, "transactions": ["delivery", "pickup"], "price": "$", "location": {"address1": "823 Congress", "address2": null, "address3": null, "city": "Austin", "zip_code": "78701", "country": "US", "state": "TX", "display_address": ["823 Congress", "Austin, TX 78701"]}, "phone": "+15124764373", "display_phone": "(512) 476-4373", "distance": 386.4783421722646}, {"id": "sMH9EtsDzE9tTyVZC2KEEw", "alias": "dong-nai-austin", "name": "Dong Nai", "image_url": "https://s3-media4.fl.yelpcdn.com/bphoto/tEGKfEAvKReWp8fKL19W0w/o.jpg", "is_closed": false, "url": "https://www.yelp.com/biz/dong-nai-austin?adjust_creative=Yv6QPpIAqCPQuHpWZNwgeA&utm_campaign=yelp_api_v3&utm_medium=api_v3_business_search&utm_source=Yv6QPpIAqCPQuHpWZNwgeA", "review_count": 359, "categories": [{"alias": "vietnamese", "title": "Vietnamese"}, {"alias": "chinese", "title": "Chinese"}], "rating": 3.5, "coordinates": {"latitude": 30.234289, "longitude": -97.792953}, "transactions": ["delivery"], "price": "$$", "location": {"address1": "4211 S Lamar Blvd", "address2": null, "address3": "", "city": "Austin", "zip_code": "78704", "country": "US", "state": "TX", "display_address": ["4211 S Lamar Blvd", "Austin, TX 78704"]}, "phone": "+15124441593", "display_phone": "(512) 444-1593", "distance": 6052.0656387441395}, {"id": "L1eFKT60jkKdxumBa6O2wg", "alias": "nadamoo-austin-4", "name": "NadaMoo!", "image_url": "https://s3-media2.fl.yelpcdn.com/bphoto/aDE4TCvVTj6_EMWp2RIzQQ/o.jpg", "is_closed": false, "url": "https://www.yelp.com/biz/nadamoo-austin-4?adjust_creative=Yv6QPpIAqCPQuHpWZNwgeA&utm_campaign=yelp_api_v3&utm_medium=api_v3_business_search&utm_source=Yv6QPpIAqCPQuHpWZNwgeA", "review_count": 163, "categories": [{"alias": "icecream", "title": "Ice Cream & Frozen Yogurt"}], "rating": 4.0, "coordinates": {"latitude": 30.25054, "longitude": -97.76547}, "transactions": ["delivery"], "price": "$", "location": {"address1": "1701 South Lamar Blvd", "address2": null, "address3": "", "city": "Austin", "zip_code": "78704", "country": "US", "state": "TX", "display_address": ["1701 South Lamar Blvd", "Austin, TX 78704"]}, "phone": "+15123598441", "display_phone": "(512) 359-8441", "distance": 2856.1254868843635}, {"id": "RJule1jHysEXmjV11abucQ", "alias": "pad-thai-austin-6", "name": "Pad Thai", "image_url": "https://s3-media3.fl.yelpcdn.com/bphoto/UNUYFu52gE73tZGLHUkBQw/o.jpg", "is_closed": false, "url": "https://www.yelp.com/biz/pad-thai-austin-6?adjust_creative=Yv6QPpIAqCPQuHpWZNwgeA&utm_campaign=yelp_api_v3&utm_medium=api_v3_business_search&utm_source=Yv6QPpIAqCPQuHpWZNwgeA", "review_count": 169, "categories": [{"alias": "thai", "title": "Thai"}], "rating": 3.5, "coordinates": {"latitude": 30.2998449885608, "longitude": -97.7403762417336}, "transactions": ["delivery", "pickup"], "price": "$", "location": {"address1": "3208 Guadalupe St", "address2": "Ste A", "address3": "", "city": "Austin", "zip_code": "78705", "country": "US", "state": "TX", "display_address": ["3208 Guadalupe St", "Ste A", "Austin, TX 78705"]}, "phone": "+15123718777", "display_phone": "(512) 371-8777", "distance": 3635.1713549170304}, {"id": "L8DnR-8_Y8XSXM52IWHxqw", "alias": "gobrands-austin-austin", "name": "goBrands Austin", "image_url": "https://s3-media4.fl.yelpcdn.com/bphoto/q5BXJfG0BLYl42sjTY9Vug/o.jpg", "is_closed": false, "url": "https://www.yelp.com/biz/gobrands-austin-austin?adjust_creative=Yv6QPpIAqCPQuHpWZNwgeA&utm_campaign=yelp_api_v3&utm_medium=api_v3_business_search&utm_source=Yv6QPpIAqCPQuHpWZNwgeA", "review_count": 19, "categories": [{"alias": "fooddeliveryservices", "title": "Food Delivery Services"}], "rating": 2.5, "coordinates": {"latitude": 30.29017, "longitude": -97.74484}, "transactions": ["delivery"], "price": "$", "location": {"address1": "", "address2": "", "address3": "", "city": "Austin", "zip_code": "78705", "country": "US", "state": "TX", "display_address": ["Austin, TX 78705"]}, "phone": "+18554007833", "display_phone": "(855) 400-7833", "distance": 3240.208371877699}, {"id": "Ajwkr3ESZprCm0Zl1os-lQ", "alias": "trader-joes-austin-4", "name": "Trader Joe's", "image_url": "https://s3-media2.fl.yelpcdn.com/bphoto/AJ7CQgO6-PMJXyjuYx6FtQ/o.jpg", "is_closed": false, "url": "https://www.yelp.com/biz/trader-joes-austin-4?adjust_creative=Yv6QPpIAqCPQuHpWZNwgeA&utm_campaign=yelp_api_v3&utm_medium=api_v3_business_search&utm_source=Yv6QPpIAqCPQuHpWZNwgeA", "review_count": 229, "categories": [{"alias": "grocery", "title": "Grocery"}], "rating": 4.5, "coordinates": {"latitude": 30.270137, "longitude": -97.789814}, "transactions": [], "price": "$$", "location": {"address1": "2805 Bee Cave Rd", "address2": "", "address3": null, "city": "Austin", "zip_code": "78746", "country": "US", "state": "TX", "display_address": ["2805 Bee Cave Rd", "Austin, TX 78746"]}, "phone": "+15123061032", "display_phone": "(512) 306-1032", "distance": 4527.967425480865}, {"id": "a4PyTwXhliTY2Gt9YqNfvw", "alias": "pad-thai-cuisine-austin-4", "name": "Pad Thai Cuisine", "image_url": "https://s3-media3.fl.yelpcdn.com/bphoto/N4695bb2Id-OMc785q7iXQ/o.jpg", "is_closed": false, "url": "https://www.yelp.com/biz/pad-thai-cuisine-austin-4?adjust_creative=Yv6QPpIAqCPQuHpWZNwgeA&utm_campaign=yelp_api_v3&utm_medium=api_v3_business_search&utm_source=Yv6QPpIAqCPQuHpWZNwgeA", "review_count": 320, "categories": [{"alias": "thai", "title": "Thai"}], "rating": 3.5, "coordinates": {"latitude": 30.30588992108299, "longitude": -97.70820134662735}, "transactions": ["delivery", "pickup"], "price": "$$", "location": {"address1": "1201 Barbara Jordan Blvd", "address2": "Ste 1220", "address3": "", "city": "Austin", "zip_code": "78723", "country": "US", "state": "TX", "display_address": ["1201 Barbara Jordan Blvd", "Ste 1220", "Austin, TX 78723"]}, "phone": "+15124691778", "display_phone": "(512) 469-1778", "distance": 5432.989024472559}, {"id": "E1CEKrHUzjSBHfr11me8Yg", "alias": "7-eleven-austin-19", "name": "7-Eleven", "image_url": "https://s3-media4.fl.yelpcdn.com/bphoto/PwKkEU-HbuU8ZT6y1l-3Dg/o.jpg", "is_closed": false, "url": "https://www.yelp.com/biz/7-eleven-austin-19?adjust_creative=Yv6QPpIAqCPQuHpWZNwgeA&utm_campaign=yelp_api_v3&utm_medium=api_v3_business_search&utm_source=Yv6QPpIAqCPQuHpWZNwgeA", "review_count": 7, "categories": [{"alias": "convenience", "title": "Convenience Stores"}, {"alias": "servicestations", "title": "Gas Stations"}, {"alias": "coffee", "title": "Coffee & Tea"}], "rating": 3.0, "coordinates": {"latitude": 30.244661, "longitude": -97.7296488}, "transactions": ["delivery", "pickup"], "price": "$", "location": {"address1": "1705 S Lakeshore Blvd", "address2": null, "address3": null, "city": "Austin", "zip_code": "78741", "country": "US", "state": "TX", "display_address": ["1705 S Lakeshore Blvd", "Austin, TX 78741"]}, "phone": "+15124417595", "display_phone": "(512) 441-7595", "distance": 2807.881325769672}, {"id": "WlPy1pelng2-VnpmywiQmQ", "alias": "7-eleven-austin-22", "name": "7-Eleven", "image_url": "https://s3-media1.fl.yelpcdn.com/bphoto/qdv0bsB0cpiKcv3xX1NybQ/o.jpg", "is_closed": false, "url": "https://www.yelp.com/biz/7-eleven-austin-22?adjust_creative=Yv6QPpIAqCPQuHpWZNwgeA&utm_campaign=yelp_api_v3&utm_medium=api_v3_business_search&utm_source=Yv6QPpIAqCPQuHpWZNwgeA", "review_count": 16, "categories": [{"alias": "convenience", "title": "Convenience Stores"}, {"alias": "servicestations", "title": "Gas Stations"}, {"alias": "coffee", "title": "Coffee & Tea"}], "rating": 1.5, "coordinates": {"latitude": 30.2259992, "longitude": -97.7703079}, "transactions": ["delivery", "pickup"], "price": "$", "location": {"address1": "601 W Ben White Blvd", "address2": null, "address3": null, "city": "Austin", "zip_code": "78704", "country": "US", "state": "TX", "display_address": ["601 W Ben White Blvd", "Austin, TX 78704"]}, "phone": "+15124442828", "display_phone": "(512) 444-2828", "distance": 5291.223148254334}, {"id": "djQEHCTOJsdD3a33Aa9lbA", "alias": "7-eleven-austin-7", "name": "7-Eleven", "image_url": "https://s3-media3.fl.yelpcdn.com/bphoto/pWiM6otGLZIpjP2JpB-pwA/o.jpg", "is_closed": false, "url": "https://www.yelp.com/biz/7-eleven-austin-7?adjust_creative=Yv6QPpIAqCPQuHpWZNwgeA&utm_campaign=yelp_api_v3&utm_medium=api_v3_business_search&utm_source=Yv6QPpIAqCPQuHpWZNwgeA", "review_count": 15, "categories": [{"alias": "convenience", "title": "Convenience Stores"}, {"alias": "servicestations", "title": "Gas Stations"}, {"alias": "coffee", "title": "Coffee & Tea"}], "rating": 2.5, "coordinates": {"latitude": 30.2439924, "longitude": -97.7822123}, "transactions": ["delivery", "pickup"], "price": "$", "location": {"address1": "2820 S Lamar", "address2": "", "address3": "", "city": "Austin", "zip_code": "78704", "country": "US", "state": "TX", "display_address": ["2820 S Lamar", "Austin, TX 78704"]}, "phone": "+15124473119", "display_phone": "(512) 447-3119", "distance": 4583.698665521648}, {"id": "aUCvtmP_nJQwzzxYZHRmtw", "alias": "7-eleven-austin-57", "name": "7-Eleven", "image_url": "https://s3-media2.fl.yelpcdn.com/bphoto/2OMj1nxs-Fwz1DXok-Svxg/o.jpg", "is_closed": false, "url": "https://www.yelp.com/biz/7-eleven-austin-57?adjust_creative=Yv6QPpIAqCPQuHpWZNwgeA&utm_campaign=yelp_api_v3&utm_medium=api_v3_business_search&utm_source=Yv6QPpIAqCPQuHpWZNwgeA", "review_count": 6, "categories": [{"alias": "convenience", "title": "Convenience Stores"}, {"alias": "servicestations", "title": "Gas Stations"}, {"alias": "coffee", "title": "Coffee & Tea"}], "rating": 2.5, "coordinates": {"latitude": 30.25795590261023, "longitude": -97.69360641409673}, "transactions": ["delivery", "pickup"], "price": "$", "location": {"address1": "863 Airport Blv", "address2": "", "address3": null, "city": "Austin", "zip_code": "78702", "country": "US", "state": "TX", "display_address": ["863 Airport Blv", "Austin, TX 78702"]}, "phone": "+15123850821", "display_phone": "(512) 385-0821", "distance": 4834.34155020426}, {"id": "E0Y_WKC62Zv7pRuZCVo87w", "alias": "7-eleven-austin-9", "name": "7-Eleven", "image_url": "https://s3-media3.fl.yelpcdn.com/bphoto/xdlYPQo_6gUuCFcLQud4hQ/o.jpg", "is_closed": false, "url": "https://www.yelp.com/biz/7-eleven-austin-9?adjust_creative=Yv6QPpIAqCPQuHpWZNwgeA&utm_campaign=yelp_api_v3&utm_medium=api_v3_business_search&utm_source=Yv6QPpIAqCPQuHpWZNwgeA", "review_count": 15, "categories": [{"alias": "convenience", "title": "Convenience Stores"}, {"alias": "coffee", "title": "Coffee & Tea"}], "rating": 2.0, "coordinates": {"latitude": 30.2320290133261, "longitude": -97.7373630798866}, "transactions": ["delivery", "pickup"], "price": "$", "location": {"address1": "1747 East Oltorf", "address2": null, "address3": null, "city": "Austin", "zip_code": "78741", "country": "US", "state": "TX", "display_address": ["1747 East Oltorf", "Austin, TX 78741"]}, "phone": "+15124417508", "display_phone": "(512) 441-7508", "distance": 3947.510454950788}]